<?xml version="1.0" encoding="UTF-8" ?>
<!DOCTYPE root [
        <!ELEMENT root (station)*>
        <!ELEMENT station (id|name|lat|lon)*>
        <!ELEMENT id (#PCDATA)>
        <!ELEMENT name (#PCDATA)>
        <!ELEMENT lat (#PCDATA)>
        <!ELEMENT lon (#PCDATA)>
        ]>
<root>
    <station>
        <id>GM000001474</id>
        <name>BREMEN SEEFAHRTSCHULE, GM</name>
        <lat>53.1017</lat>
        <lon>8.7842</lon>
    </station>
    <station>
        <id>GM000002288</id>
        <name>KAISERSLAUTERN, GM</name>
        <lat>49.4253</lat>
        <lon>7.7367</lon>
    </station>
    <station>
        <id>GM000003038</id>
        <name>SCHWERIN, GM</name>
        <lat>53.6442</lat>
        <lon>11.3883</lon>
    </station>
    <station>
        <id>GM000003319</id>
        <name>BERLIN DAHLEM, GM</name>
        <lat>52.4639</lat>
        <lon>13.3017</lon>
    </station>
    <station>
        <id>GM000003342</id>
        <name>POTSDAM, GM</name>
        <lat>52.3833</lat>
        <lon>13.0639</lon>
    </station>
    <station>
        <id>GM000004063</id>
        <name>BAMBERG, GM</name>
        <lat>49.8753</lat>
        <lon>10.9217</lon>
    </station>
    <station>
        <id>GM000004199</id>
        <name>MUNCHEN NYMPHENBURG, GM</name>
        <lat>48.1667</lat>
        <lon>11.5025</lon>
    </station>
    <station>
        <id>GM000004204</id>
        <name>JENA STERNWARTE, GM</name>
        <lat>50.9267</lat>
        <lon>11.5842</lon>
    </station>
    <station>
        <id>GM000010147</id>
        <name>HAMBURG FUHLSBUETTEL, GM</name>
        <lat>53.635</lat>
        <lon>9.99</lon>
    </station>
    <station>
        <id>GM000010393</id>
        <name>LINDENBERG, GM</name>
        <lat>52.2094</lat>
        <lon>14.1203</lon>
    </station>
    <station>
        <id>GM000010962</id>
        <name>HOHENPEISSENBERG, GM</name>
        <lat>47.8017</lat>
        <lon>11.0117</lon>
    </station>
    <station>
        <id>GME00102177</id>
        <name>HELGOLAND, GM</name>
        <lat>54.1764</lat>
        <lon>7.8931</lon>
    </station>
    <station>
        <id>GME00102212</id>
        <name>ROSTOCK WARNEMUNDE, GM</name>
        <lat>54.1817</lat>
        <lon>12.0819</lon>
    </station>
    <station>
        <id>GME00102220</id>
        <name>GREIFSWALD, GM</name>
        <lat>54.0978</lat>
        <lon>13.4075</lon>
    </station>
    <station>
        <id>GME00102228</id>
        <name>EMDEN WOLTHUSEN, GM</name>
        <lat>53.3719</lat>
        <lon>7.2242</lon>
    </station>
    <station>
        <id>GME00102244</id>
        <name>HANNOVER, GM</name>
        <lat>52.4656</lat>
        <lon>9.6794</lon>
    </station>
    <station>
        <id>GME00102252</id>
        <name>MAGDEBURG, GM</name>
        <lat>52.1031</lat>
        <lon>11.5842</lon>
    </station>
    <station>
        <id>GME00102268</id>
        <name>DUSSELDORF, GM</name>
        <lat>51.2969</lat>
        <lon>6.77</lon>
    </station>
    <station>
        <id>GME00102284</id>
        <name>FRITZLAR, GM</name>
        <lat>51.1167</lat>
        <lon>9.2831</lon>
    </station>
    <station>
        <id>GME00102292</id>
        <name>LEIPZIG SCHKEUDITZ, GM</name>
        <lat>51.4358</lat>
        <lon>12.2414</lon>
    </station>
    <station>
        <id>GME00102324</id>
        <name>NURBURG BARWEILER, GM</name>
        <lat>50.3608</lat>
        <lon>6.8703</lon>
    </station>
    <station>
        <id>GME00102332</id>
        <name>MEININGEN, GM</name>
        <lat>50.5625</lat>
        <lon>10.3769</lon>
    </station>
    <station>
        <id>GME00102340</id>
        <name>ERFURT BINDERSLEBEN, GM</name>
        <lat>50.9844</lat>
        <lon>10.9631</lon>
    </station>
    <station>
        <id>GME00102348</id>
        <name>FICHTELBERG, GM</name>
        <lat>50.4292</lat>
        <lon>12.9553</lon>
    </station>
    <station>
        <id>GME00102356</id>
        <name>WURZBURG, GM</name>
        <lat>49.7714</lat>
        <lon>9.9589</lon>
    </station>
    <station>
        <id>GME00102364</id>
        <name>HOF, GM</name>
        <lat>50.3131</lat>
        <lon>11.8775</lon>
    </station>
    <station>
        <id>GME00102372</id>
        <name>SAARBRUCKEN ENSHEIM, GM</name>
        <lat>49.2142</lat>
        <lon>7.1081</lon>
    </station>
    <station>
        <id>GME00102380</id>
        <name>NURNBERG, GM</name>
        <lat>49.5042</lat>
        <lon>11.0567</lon>
    </station>
    <station>
        <id>GME00102388</id>
        <name>STRAUBING, GM</name>
        <lat>48.8283</lat>
        <lon>12.5603</lon>
    </station>
    <station>
        <id>GME00102396</id>
        <name>AUGSBURG, GM</name>
        <lat>48.4264</lat>
        <lon>10.9431</lon>
    </station>
    <station>
        <id>GME00102404</id>
        <name>KONSTANZ, GM</name>
        <lat>47.6781</lat>
        <lon>9.1908</lon>
    </station>
    <station>
        <id>GME00102412</id>
        <name>KEMPTEN, GM</name>
        <lat>47.7242</lat>
        <lon>10.3364</lon>
    </station>
    <station>
        <id>GME00111430</id>
        <name>MUENSTER OSNABRUECK AIRPORT, GM</name>
        <lat>52.1353</lat>
        <lon>7.7</lon>
    </station>
    <station>
        <id>GME00111445</id>
        <name>BERLIN TEMPELHOF, GM</name>
        <lat>52.4683</lat>
        <lon>13.4039</lon>
    </station>
    <station>
        <id>GME00111457</id>
        <name>ALTASTENBERG, GM</name>
        <lat>51.1903</lat>
        <lon>8.4681</lon>
    </station>
    <station>
        <id>GME00111464</id>
        <name>DRESDEN KLOTZSCHE, GM</name>
        <lat>51.1292</lat>
        <lon>13.7558</lon>
    </station>
    <station>
        <id>GME00111474</id>
        <name>TRIER PETRISBERG, GM</name>
        <lat>49.7492</lat>
        <lon>6.6592</lon>
    </station>
    <station>
        <id>GME00111503</id>
        <name>RHEINSTETTEN, GM</name>
        <lat>48.9733</lat>
        <lon>8.3308</lon>
    </station>
    <station>
        <id>GME00111512</id>
        <name>STUTTGART ECHTERDINGEN, GM</name>
        <lat>48.6892</lat>
        <lon>9.2253</lon>
    </station>
    <station>
        <id>GME00114621</id>
        <name>BROCKEN, GM</name>
        <lat>51.8</lat>
        <lon>10.62</lon>
    </station>
    <station>
        <id>GME00115771</id>
        <name>STUTTGART SCHNARRENBERG, GM</name>
        <lat>48.8292</lat>
        <lon>9.2008</lon>
    </station>
    <station>
        <id>GME00120922</id>
        <name>LEUCHTTURM ALTE WESER, GM</name>
        <lat>53.8631</lat>
        <lon>8.1275</lon>
    </station>
    <station>
        <id>GME00120934</id>
        <name>FELDBERG SCHWARZWALD, GM</name>
        <lat>47.8756</lat>
        <lon>8.0044</lon>
    </station>
    <station>
        <id>GME00120946</id>
        <name>FREUDENSTADT, GM</name>
        <lat>48.4544</lat>
        <lon>8.41</lon>
    </station>
    <station>
        <id>GME00120958</id>
        <name>AACHEN ORSBACH, GM</name>
        <lat>50.7992</lat>
        <lon>6.025</lon>
    </station>
    <station>
        <id>GME00120970</id>
        <name>GERA LEUMNITZ, GM</name>
        <lat>50.8819</lat>
        <lon>12.13</lon>
    </station>
    <station>
        <id>GME00120982</id>
        <name>GIESSEN WETTENBERG, GM</name>
        <lat>50.6008</lat>
        <lon>8.6506</lon>
    </station>
    <station>
        <id>GME00120994</id>
        <name>ANGERMUNDE, GM</name>
        <lat>53.0331</lat>
        <lon>13.9931</lon>
    </station>
    <station>
        <id>GME00121006</id>
        <name>GROSSER ARBER, GM</name>
        <lat>49.1139</lat>
        <lon>13.1353</lon>
    </station>
    <station>
        <id>GME00121030</id>
        <name>KIEL HOLTENAU, GM</name>
        <lat>54.3756</lat>
        <lon>10.1439</lon>
    </station>
    <station>
        <id>GME00121042</id>
        <name>KOLN BONN, GM</name>
        <lat>50.8658</lat>
        <lon>7.1583</lon>
    </station>
    <station>
        <id>GME00121054</id>
        <name>LAHR, GM</name>
        <lat>48.3656</lat>
        <lon>7.8289</lon>
    </station>
    <station>
        <id>GME00121066</id>
        <name>LEUCHTTURM KIEL, GM</name>
        <lat>54.5003</lat>
        <lon>10.2744</lon>
    </station>
    <station>
        <id>GME00121078</id>
        <name>BAD LIPPSPRINGE, GM</name>
        <lat>51.7867</lat>
        <lon>8.8394</lon>
    </station>
    <station>
        <id>GME00121090</id>
        <name>MARNITZ, GM</name>
        <lat>53.3242</lat>
        <lon>11.9333</lon>
    </station>
    <station>
        <id>GME00121102</id>
        <name>NORDERNEY, GM</name>
        <lat>53.7139</lat>
        <lon>7.1525</lon>
    </station>
    <station>
        <id>GME00121126</id>
        <name>OHRINGEN, GM</name>
        <lat>49.2081</lat>
        <lon>9.5183</lon>
    </station>
    <station>
        <id>GME00121138</id>
        <name>REGENSBURG, GM</name>
        <lat>49.0433</lat>
        <lon>12.1031</lon>
    </station>
    <station>
        <id>GME00121150</id>
        <name>BERLIN TEGEL, GM</name>
        <lat>52.5656</lat>
        <lon>13.3106</lon>
    </station>
    <station>
        <id>GME00121162</id>
        <name>STOTTEN, GM</name>
        <lat>48.6667</lat>
        <lon>9.8656</lon>
    </station>
    <station>
        <id>GME00121174</id>
        <name>WASSERKUPPE, GM</name>
        <lat>50.4978</lat>
        <lon>9.9439</lon>
    </station>
    <station>
        <id>GME00121186</id>
        <name>WEIDEN, GM</name>
        <lat>49.6669</lat>
        <lon>12.1856</lon>
    </station>
    <station>
        <id>GME00121210</id>
        <name>FURSTENZELL, GM</name>
        <lat>48.5458</lat>
        <lon>13.3544</lon>
    </station>
    <station>
        <id>GME00121222</id>
        <name>HAHN, GM</name>
        <lat>49.9475</lat>
        <lon>7.2644</lon>
    </station>
    <station>
        <id>GME00121246</id>
        <name>OFFENBACH WETTERPARK, GM</name>
        <lat>50.0892</lat>
        <lon>8.7864</lon>
    </station>
    <station>
        <id>GME00121258</id>
        <name>COTTBUS, GM</name>
        <lat>51.7775</lat>
        <lon>14.3183</lon>
    </station>
    <station>
        <id>GME00121270</id>
        <name>CUXHAVEN, GM</name>
        <lat>53.8731</lat>
        <lon>8.7067</lon>
    </station>
    <station>
        <id>GME00121306</id>
        <name>DOBERLUG KIRCHHAIN, GM</name>
        <lat>51.6467</lat>
        <lon>13.5767</lon>
    </station>
    <station>
        <id>GME00121354</id>
        <name>DRESDEN HOSTERWITZ, GM</name>
        <lat>51.0233</lat>
        <lon>13.8494</lon>
    </station>
    <station>
        <id>GME00121366</id>
        <name>DRESDEN STREHLEN, GM</name>
        <lat>51.0253</lat>
        <lon>13.7756</lon>
    </station>
    <station>
        <id>GME00121378</id>
        <name>DREWITZ BEI BURG, GM</name>
        <lat>52.2183</lat>
        <lon>12.165</lon>
    </station>
    <station>
        <id>GME00121402</id>
        <name>BAD DURKHEIM, GM</name>
        <lat>49.4728</lat>
        <lon>8.1939</lon>
    </station>
    <station>
        <id>GME00121510</id>
        <name>EBERSBERG HALBING, GM</name>
        <lat>48.1008</lat>
        <lon>11.9883</lon>
    </station>
    <station>
        <id>GME00121534</id>
        <name>EBRACH, GM</name>
        <lat>49.8531</lat>
        <lon>10.5003</lon>
    </station>
    <station>
        <id>GME00121582</id>
        <name>EICHSTATT LANDERSHOFEN, GM</name>
        <lat>48.8789</lat>
        <lon>11.2358</lon>
    </station>
    <station>
        <id>GME00121654</id>
        <name>ELLWANGEN RINDELBACH, GM</name>
        <lat>48.9903</lat>
        <lon>10.1317</lon>
    </station>
    <station>
        <id>GME00121666</id>
        <name>ELPERSBUTTEL, GM</name>
        <lat>54.0708</lat>
        <lon>9.0114</lon>
    </station>
    <station>
        <id>GME00121702</id>
        <name>BAD SOHL ELSTER, GM</name>
        <lat>50.2717</lat>
        <lon>12.2753</lon>
    </station>
    <station>
        <id>GME00121714</id>
        <name>ELZACH FISNACHT, GM</name>
        <lat>48.2019</lat>
        <lon>8.1094</lon>
    </station>
    <station>
        <id>GME00121750</id>
        <name>EMMENDINGEN MUNDINGEN, GM</name>
        <lat>48.1383</lat>
        <lon>7.8356</lon>
    </station>
    <station>
        <id>GME00121834</id>
        <name>ALTENSTADT, GM</name>
        <lat>47.8364</lat>
        <lon>10.8719</lon>
    </station>
    <station>
        <id>GME00121846</id>
        <name>ERFDE, GM</name>
        <lat>54.3008</lat>
        <lon>9.3169</lon>
    </station>
    <station>
        <id>GME00121882</id>
        <name>MOHRENDORF KLEINSEEBACH, GM</name>
        <lat>49.6506</lat>
        <lon>11.0083</lon>
    </station>
    <station>
        <id>GME00121930</id>
        <name>ESCHWEGE, GM</name>
        <lat>51.1844</lat>
        <lon>10.065</lon>
    </station>
    <station>
        <id>GME00121954</id>
        <name>ALTENTREPTOW, GM</name>
        <lat>53.6881</lat>
        <lon>13.2631</lon>
    </station>
    <station>
        <id>GME00121966</id>
        <name>ESLOHE, GM</name>
        <lat>51.2553</lat>
        <lon>8.1569</lon>
    </station>
    <station>
        <id>GME00121978</id>
        <name>ESSEN BREDENEY, GM</name>
        <lat>51.4056</lat>
        <lon>6.9683</lon>
    </station>
    <station>
        <id>GME00121990</id>
        <name>ALTGERINGSWALDE, GM</name>
        <lat>51.0892</lat>
        <lon>12.9342</lon>
    </station>
    <station>
        <id>GME00122002</id>
        <name>WEILERSWIST LOMMERSUM, GM</name>
        <lat>50.7131</lat>
        <lon>6.7917</lon>
    </station>
    <station>
        <id>GME00122038</id>
        <name>KR.ROTTAL INN FALKENBERG, GM</name>
        <lat>48.4842</lat>
        <lon>12.7256</lon>
    </station>
    <station>
        <id>GME00122050</id>
        <name>FASSBERG, GM</name>
        <lat>52.9192</lat>
        <lon>10.1839</lon>
    </station>
    <station>
        <id>GME00122086</id>
        <name>FICHTELBERG OBERFRANKEN HUTTST, GM</name>
        <lat>49.9817</lat>
        <lon>11.8392</lon>
    </station>
    <station>
        <id>GME00122098</id>
        <name>DUISBURG BAERL, GM</name>
        <lat>51.51</lat>
        <lon>6.7019</lon>
    </station>
    <station>
        <id>GME00122122</id>
        <name>HAMELN HASTENBECK, GM</name>
        <lat>52.0831</lat>
        <lon>9.4081</lon>
    </station>
    <station>
        <id>GME00122134</id>
        <name>WALTROP ABDINGHOF, GM</name>
        <lat>51.5981</lat>
        <lon>7.4056</lon>
    </station>
    <station>
        <id>GME00122146</id>
        <name>GEVELSBERG OBERBROKING, GM</name>
        <lat>51.3342</lat>
        <lon>7.3417</lon>
    </station>
    <station>
        <id>GME00122158</id>
        <name>LANDSHUT REITHOF, GM</name>
        <lat>48.5742</lat>
        <lon>12.2589</lon>
    </station>
    <station>
        <id>GME00122170</id>
        <name>ROCKENDORF, GM</name>
        <lat>50.6825</lat>
        <lon>11.5164</lon>
    </station>
    <station>
        <id>GME00122182</id>
        <name>MEINERZHAGEN REDLENDORF, GM</name>
        <lat>51.0908</lat>
        <lon>7.6294</lon>
    </station>
    <station>
        <id>GME00122194</id>
        <name>FLADUNGEN HEUFURT, GM</name>
        <lat>50.5058</lat>
        <lon>10.1681</lon>
    </station>
    <station>
        <id>GME00122218</id>
        <name>HELMSTEDT EMMERSTEDT, GM</name>
        <lat>52.2478</lat>
        <lon>10.9603</lon>
    </station>
    <station>
        <id>GME00122290</id>
        <name>FLOSSENBURG, GM</name>
        <lat>49.7328</lat>
        <lon>12.3506</lon>
    </station>
    <station>
        <id>GME00122326</id>
        <name>BIRX RHON, GM</name>
        <lat>50.5317</lat>
        <lon>10.0492</lon>
    </station>
    <station>
        <id>GME00122362</id>
        <name>FRANKFURT MAIN WESTEND, GM</name>
        <lat>50.1281</lat>
        <lon>8.6703</lon>
    </station>
    <station>
        <id>GME00122386</id>
        <name>FRANKFURT ODER, GM</name>
        <lat>52.3653</lat>
        <lon>14.5378</lon>
    </station>
    <station>
        <id>GME00122410</id>
        <name>ALTOMUNSTER MAISBRUNN, GM</name>
        <lat>48.4067</lat>
        <lon>11.3131</lon>
    </station>
    <station>
        <id>GME00122422</id>
        <name>HERSDORF WEISSENSEIFEN, GM</name>
        <lat>50.1517</lat>
        <lon>6.5531</lon>
    </station>
    <station>
        <id>GME00122434</id>
        <name>FREIAMT OTTOSCHWANDEN, GM</name>
        <lat>48.2028</lat>
        <lon>7.9342</lon>
    </station>
    <station>
        <id>GME00122446</id>
        <name>FREIBERG, GM</name>
        <lat>50.9281</lat>
        <lon>13.3389</lon>
    </station>
    <station>
        <id>GME00122458</id>
        <name>FREIBURG, GM</name>
        <lat>48.0242</lat>
        <lon>7.8353</lon>
    </station>
    <station>
        <id>GME00122482</id>
        <name>FREIBURG ELBE, GM</name>
        <lat>53.8292</lat>
        <lon>9.2494</lon>
    </station>
    <station>
        <id>GME00122494</id>
        <name>FREYSTADT OBERNDORF, GM</name>
        <lat>49.1792</lat>
        <lon>11.375</lon>
    </station>
    <station>
        <id>GME00122542</id>
        <name>FRIESOYTHE EDEWECHTERDAM, GM</name>
        <lat>53.0894</lat>
        <lon>7.9425</lon>
    </station>
    <station>
        <id>GME00122566</id>
        <name>ALZEY, GM</name>
        <lat>49.7281</lat>
        <lon>8.1167</lon>
    </station>
    <station>
        <id>GME00122602</id>
        <name>AMBERG UNTERAMMERSRICHT, GM</name>
        <lat>49.47</lat>
        <lon>11.8558</lon>
    </station>
    <station>
        <id>GME00122626</id>
        <name>FULDA, GM</name>
        <lat>50.5344</lat>
        <lon>9.6758</lon>
    </station>
    <station>
        <id>GME00122638</id>
        <name>GARDELEGEN, GM</name>
        <lat>52.5142</lat>
        <lon>11.3978</lon>
    </station>
    <station>
        <id>GME00122650</id>
        <name>AMERANG PFAFFING, GM</name>
        <lat>48.0206</lat>
        <lon>12.2939</lon>
    </station>
    <station>
        <id>GME00122698</id>
        <name>GEISENHEIM, GM</name>
        <lat>49.985</lat>
        <lon>7.9544</lon>
    </station>
    <station>
        <id>GME00122710</id>
        <name>GEISINGEN, GM</name>
        <lat>47.925</lat>
        <lon>8.6481</lon>
    </station>
    <station>
        <id>GME00122734</id>
        <name>GELBELSEE, GM</name>
        <lat>48.9489</lat>
        <lon>11.43</lon>
    </station>
    <station>
        <id>GME00122746</id>
        <name>GELDERN WALBECK, GM</name>
        <lat>51.4956</lat>
        <lon>6.2467</lon>
    </station>
    <station>
        <id>GME00122770</id>
        <name>OHLSBACH, GM</name>
        <lat>48.4339</lat>
        <lon>7.9933</lon>
    </station>
    <station>
        <id>GME00122782</id>
        <name>GENTHIN, GM</name>
        <lat>52.3892</lat>
        <lon>12.1633</lon>
    </station>
    <station>
        <id>GME00122806</id>
        <name>GERNSHEIM ALLMENDFELD, GM</name>
        <lat>49.7725</lat>
        <lon>8.5306</lon>
    </station>
    <station>
        <id>GME00122842</id>
        <name>GILSERBERG MOISCHEID, GM</name>
        <lat>50.9664</lat>
        <lon>9.0503</lon>
    </station>
    <station>
        <id>GME00122866</id>
        <name>GLUCKSTADT, GM</name>
        <lat>53.7983</lat>
        <lon>9.4306</lon>
    </station>
    <station>
        <id>GME00122878</id>
        <name>ANKLAM, GM</name>
        <lat>53.8431</lat>
        <lon>13.6856</lon>
    </station>
    <station>
        <id>GME00122890</id>
        <name>GOSSWEINSTEIN, GM</name>
        <lat>49.7667</lat>
        <lon>11.3075</lon>
    </station>
    <station>
        <id>GME00122902</id>
        <name>GOTTINGEN, GM</name>
        <lat>51.5017</lat>
        <lon>9.9528</lon>
    </station>
    <station>
        <id>GME00122938</id>
        <name>GRAFENBERG KASBERG, GM</name>
        <lat>49.665</lat>
        <lon>11.2253</lon>
    </station>
    <station>
        <id>GME00122962</id>
        <name>GRAINET REHBERG, GM</name>
        <lat>48.7903</lat>
        <lon>13.6306</lon>
    </station>
    <station>
        <id>GME00122974</id>
        <name>GRAMBEK, GM</name>
        <lat>53.5744</lat>
        <lon>10.6806</lon>
    </station>
    <station>
        <id>GME00123058</id>
        <name>GROSS LUSEWITZ, GM</name>
        <lat>54.0731</lat>
        <lon>12.3256</lon>
    </station>
    <station>
        <id>GME00123094</id>
        <name>FELDKIRCHEN WESTERHAM LENZMUHL, GM</name>
        <lat>47.9417</lat>
        <lon>11.9014</lon>
    </station>
    <station>
        <id>GME00123130</id>
        <name>GRUNDAU BREITENBORN, GM</name>
        <lat>50.2675</lat>
        <lon>9.1889</lon>
    </station>
    <station>
        <id>GME00123142</id>
        <name>GRUNOW, GM</name>
        <lat>53.3167</lat>
        <lon>13.9358</lon>
    </station>
    <station>
        <id>GME00123178</id>
        <name>GUTERSLOH, GM</name>
        <lat>51.8889</lat>
        <lon>8.3553</lon>
    </station>
    <station>
        <id>GME00123190</id>
        <name>ARNSTEIN MUDESHEIM, GM</name>
        <lat>49.9706</lat>
        <lon>9.9125</lon>
    </station>
    <station>
        <id>GME00123226</id>
        <name>OLSDORF, GM</name>
        <lat>49.9325</lat>
        <lon>6.3756</lon>
    </station>
    <station>
        <id>GME00123274</id>
        <name>HAMBURG NEUWIEDENTHAL, GM</name>
        <lat>53.4792</lat>
        <lon>9.8983</lon>
    </station>
    <station>
        <id>GME00123310</id>
        <name>ARTERN, GM</name>
        <lat>51.3756</lat>
        <lon>11.2931</lon>
    </station>
    <station>
        <id>GME00123370</id>
        <name>HANKENSBUTTEL, GM</name>
        <lat>52.7214</lat>
        <lon>10.6</lon>
    </station>
    <station>
        <id>GME00123382</id>
        <name>HARBURG, GM</name>
        <lat>48.7928</lat>
        <lon>10.7075</lon>
    </station>
    <station>
        <id>GME00123394</id>
        <name>ASCHAFFENBURG, GM</name>
        <lat>49.9789</lat>
        <lon>9.1125</lon>
    </station>
    <station>
        <id>GME00123418</id>
        <name>HARZGERODE, GM</name>
        <lat>51.6531</lat>
        <lon>11.1375</lon>
    </station>
    <station>
        <id>GME00123466</id>
        <name>HECHINGEN, GM</name>
        <lat>48.3758</lat>
        <lon>8.9808</lon>
    </station>
    <station>
        <id>GME00123574</id>
        <name>HEINSBERG SCHLEIDEN, GM</name>
        <lat>51.0425</lat>
        <lon>6.1044</lon>
    </station>
    <station>
        <id>GME00123586</id>
        <name>ASSLAR KLEIN ALTENSTADTEN, GM</name>
        <lat>50.5808</lat>
        <lon>8.4692</lon>
    </station>
    <station>
        <id>GME00123646</id>
        <name>HERRENBERG, GM</name>
        <lat>48.5928</lat>
        <lon>8.8553</lon>
    </station>
    <station>
        <id>GME00123694</id>
        <name>BAD HERSFELD, GM</name>
        <lat>50.8531</lat>
        <lon>9.7383</lon>
    </station>
    <station>
        <id>GME00123718</id>
        <name>HERZBERG, GM</name>
        <lat>51.6267</lat>
        <lon>10.3717</lon>
    </station>
    <station>
        <id>GME00123730</id>
        <name>ATTENKAM, GM</name>
        <lat>47.8781</lat>
        <lon>11.3656</lon>
    </station>
    <station>
        <id>GME00123778</id>
        <name>HILGENROTH, GM</name>
        <lat>50.7381</lat>
        <lon>7.6533</lon>
    </station>
    <station>
        <id>GME00123838</id>
        <name>AUE, GM</name>
        <lat>50.5917</lat>
        <lon>12.7156</lon>
    </station>
    <station>
        <id>GME00123862</id>
        <name>BERTSDORF HORNITZ, GM</name>
        <lat>50.9006</lat>
        <lon>14.7475</lon>
    </station>
    <station>
        <id>GME00123898</id>
        <name>HOFHEIM, GM</name>
        <lat>50.1364</lat>
        <lon>10.5167</lon>
    </station>
    <station>
        <id>GME00123922</id>
        <name>HOHN, GM</name>
        <lat>54.3128</lat>
        <lon>9.5392</lon>
    </station>
    <station>
        <id>GME00123934</id>
        <name>HOHWACHT, GM</name>
        <lat>54.3206</lat>
        <lon>10.6742</lon>
    </station>
    <station>
        <id>GME00123946</id>
        <name>HOLZDORF FLUGPLATZ, GM</name>
        <lat>51.7683</lat>
        <lon>13.1681</lon>
    </station>
    <station>
        <id>GME00123970</id>
        <name>HOLZKIRCHEN, GM</name>
        <lat>47.8831</lat>
        <lon>11.6975</lon>
    </station>
    <station>
        <id>GME00123994</id>
        <name>KR. HOLZMINDEN BEVERN, GM</name>
        <lat>51.8553</lat>
        <lon>9.4975</lon>
    </station>
    <station>
        <id>GME00124030</id>
        <name>HOMBURG SAAR, GM</name>
        <lat>49.3292</lat>
        <lon>7.3567</lon>
    </station>
    <station>
        <id>GME00124102</id>
        <name>HUMMERICH, GM</name>
        <lat>50.5664</lat>
        <lon>7.4844</lon>
    </station>
    <station>
        <id>GME00124126</id>
        <name>IDAR OBERSTEIN, GM</name>
        <lat>49.7</lat>
        <lon>7.3331</lon>
    </station>
    <station>
        <id>GME00124138</id>
        <name>IHRINGEN, GM</name>
        <lat>48.0428</lat>
        <lon>7.6328</lon>
    </station>
    <station>
        <id>GME00124186</id>
        <name>INGOLSTADT FLUGPLATZ, GM</name>
        <lat>48.7156</lat>
        <lon>11.5333</lon>
    </station>
    <station>
        <id>GME00124222</id>
        <name>ITZEHOE, GM</name>
        <lat>53.9894</lat>
        <lon>9.5694</lon>
    </station>
    <station>
        <id>GME00124234</id>
        <name>SCHLESWIG JAGEL, GM</name>
        <lat>54.4567</lat>
        <lon>9.5206</lon>
    </station>
    <station>
        <id>GME00124306</id>
        <name>JUTERBOG, GM</name>
        <lat>52.0017</lat>
        <lon>13.1039</lon>
    </station>
    <station>
        <id>GME00124318</id>
        <name>KAHL MAIN, GM</name>
        <lat>50.0656</lat>
        <lon>8.9942</lon>
    </station>
    <station>
        <id>GME00124330</id>
        <name>KAISERSBACH CRONHUTTE, GM</name>
        <lat>48.9181</lat>
        <lon>9.6881</lon>
    </station>
    <station>
        <id>GME00124366</id>
        <name>KALL SISTIG, GM</name>
        <lat>50.5028</lat>
        <lon>6.5267</lon>
    </station>
    <station>
        <id>GME00124450</id>
        <name>KEHL ODELSHOFEN, GM</name>
        <lat>48.5583</lat>
        <lon>7.8808</lon>
    </station>
    <station>
        <id>GME00124474</id>
        <name>KIRCHBERG JAGST HERBOLDSHAUSEN, GM</name>
        <lat>49.1814</lat>
        <lon>9.9808</lon>
    </station>
    <station>
        <id>GME00124486</id>
        <name>KIRCHDORF POEL, GM</name>
        <lat>54.0008</lat>
        <lon>11.4358</lon>
    </station>
    <station>
        <id>GME00124498</id>
        <name>BADEN BADEN GEROLDSAU, GM</name>
        <lat>48.7278</lat>
        <lon>8.2467</lon>
    </station>
    <station>
        <id>GME00124510</id>
        <name>BAD KISSINGEN, GM</name>
        <lat>50.2256</lat>
        <lon>10.0803</lon>
    </station>
    <station>
        <id>GME00124522</id>
        <name>MULLHEIM, GM</name>
        <lat>47.8069</lat>
        <lon>7.6392</lon>
    </station>
    <station>
        <id>GME00124534</id>
        <name>KITZINGEN, GM</name>
        <lat>49.7369</lat>
        <lon>10.1792</lon>
    </station>
    <station>
        <id>GME00124546</id>
        <name>KLEINER FELDBERG TAUNUS, GM</name>
        <lat>50.2225</lat>
        <lon>8.4481</lon>
    </station>
    <station>
        <id>GME00124570</id>
        <name>KLEINER INSELSBERG, GM</name>
        <lat>50.8469</lat>
        <lon>10.4814</lon>
    </station>
    <station>
        <id>GME00124594</id>
        <name>KLETTWITZ, GM</name>
        <lat>51.5567</lat>
        <lon>13.8864</lon>
    </station>
    <station>
        <id>GME00124606</id>
        <name>KLEVE, GM</name>
        <lat>51.7625</lat>
        <lon>6.0956</lon>
    </station>
    <station>
        <id>GME00124630</id>
        <name>KLITZSCHEN BEI TORGAU, GM</name>
        <lat>51.5203</lat>
        <lon>12.9078</lon>
    </station>
    <station>
        <id>GME00124678</id>
        <name>BAD KONIGSHOFEN, GM</name>
        <lat>50.2853</lat>
        <lon>10.4467</lon>
    </station>
    <station>
        <id>GME00124690</id>
        <name>KONIGSMOOR, GM</name>
        <lat>53.2292</lat>
        <lon>9.6533</lon>
    </station>
    <station>
        <id>GME00124726</id>
        <name>KOSCHING, GM</name>
        <lat>48.8308</lat>
        <lon>11.4883</lon>
    </station>
    <station>
        <id>GME00124762</id>
        <name>KOTHEN ANHALT, GM</name>
        <lat>51.7528</lat>
        <lon>12.0092</lon>
    </station>
    <station>
        <id>GME00124774</id>
        <name>BAD KOHLGRUB ROSSHOF, GM</name>
        <lat>47.6658</lat>
        <lon>11.0817</lon>
    </station>
    <station>
        <id>GME00124810</id>
        <name>KRONACH, GM</name>
        <lat>50.2533</lat>
        <lon>11.3219</lon>
    </station>
    <station>
        <id>GME00124846</id>
        <name>KUMMERSBRUCK, GM</name>
        <lat>49.4289</lat>
        <lon>11.9019</lon>
    </station>
    <station>
        <id>GME00124918</id>
        <name>LAAGE FLUGPLATZ, GM</name>
        <lat>53.9167</lat>
        <lon>12.2831</lon>
    </station>
    <station>
        <id>GME00124930</id>
        <name>MERKLINGEN, GM</name>
        <lat>48.5131</lat>
        <lon>9.7656</lon>
    </station>
    <station>
        <id>GME00125026</id>
        <name>LANGENLIPSDORF, GM</name>
        <lat>51.9183</lat>
        <lon>13.0889</lon>
    </station>
    <station>
        <id>GME00125074</id>
        <name>BAD LAUCHSTADT, GM</name>
        <lat>51.3925</lat>
        <lon>11.88</lon>
    </station>
    <station>
        <id>GME00125098</id>
        <name>LAUPHEIM, GM</name>
        <lat>48.2181</lat>
        <lon>9.9094</lon>
    </station>
    <station>
        <id>GME00125122</id>
        <name>LECHFELD, GM</name>
        <lat>48.1864</lat>
        <lon>10.8506</lon>
    </station>
    <station>
        <id>GME00125218</id>
        <name>LEIPZIG HOLZHAUSEN, GM</name>
        <lat>51.3164</lat>
        <lon>12.4475</lon>
    </station>
    <station>
        <id>GME00125230</id>
        <name>LENNESTADT THETEN, GM</name>
        <lat>51.1344</lat>
        <lon>8.0358</lon>
    </station>
    <station>
        <id>GME00125254</id>
        <name>BARSINGHAUSEN HOHENBOSTEL, GM</name>
        <lat>52.3208</lat>
        <lon>9.4306</lon>
    </station>
    <station>
        <id>GME00125278</id>
        <name>LENZEN ELBE, GM</name>
        <lat>53.1025</lat>
        <lon>11.4878</lon>
    </station>
    <station>
        <id>GME00125302</id>
        <name>KOLN STAMMHEIM, GM</name>
        <lat>50.9906</lat>
        <lon>6.9783</lon>
    </station>
    <station>
        <id>GME00125314</id>
        <name>LICHTENHAIN MITTELNDORF, GM</name>
        <lat>50.9394</lat>
        <lon>14.2108</lon>
    </station>
    <station>
        <id>GME00125326</id>
        <name>BARTH, GM</name>
        <lat>54.3406</lat>
        <lon>12.7106</lon>
    </station>
    <station>
        <id>GME00125422</id>
        <name>LIPPSTADT BOKENFORDE, GM</name>
        <lat>51.6344</lat>
        <lon>8.3953</lon>
    </station>
    <station>
        <id>GME00125434</id>
        <name>BAD LOBENSTEIN, GM</name>
        <lat>50.4519</lat>
        <lon>11.6333</lon>
    </station>
    <station>
        <id>GME00125446</id>
        <name>BARUTH, GM</name>
        <lat>52.0619</lat>
        <lon>13.5028</lon>
    </station>
    <station>
        <id>GME00125458</id>
        <name>LOHNBERG OBERSHAUSEN, GM</name>
        <lat>50.5633</lat>
        <lon>8.24</lon>
    </station>
    <station>
        <id>GME00125530</id>
        <name>LUBBEN BLUMENFELDE, GM</name>
        <lat>51.9281</lat>
        <lon>13.8819</lon>
    </station>
    <station>
        <id>GME00125554</id>
        <name>LUBECK BLANKENSEE, GM</name>
        <lat>53.8106</lat>
        <lon>10.7067</lon>
    </station>
    <station>
        <id>GME00125602</id>
        <name>LUDENSCHEID, GM</name>
        <lat>51.2467</lat>
        <lon>7.6431</lon>
    </station>
    <station>
        <id>GME00125638</id>
        <name>LUISENTHAL TALSPERRE, GM</name>
        <lat>50.7675</lat>
        <lon>10.7214</lon>
    </station>
    <station>
        <id>GME00125662</id>
        <name>MAINZ LERCHENBERG ZDF, GM</name>
        <lat>49.9681</lat>
        <lon>8.2117</lon>
    </station>
    <station>
        <id>GME00125686</id>
        <name>MALLERSDORF NIEDERBAYERN, GM</name>
        <lat>48.7781</lat>
        <lon>12.2544</lon>
    </station>
    <station>
        <id>GME00125698</id>
        <name>KR. BAUTZEN KUBSCHUTZ, GM</name>
        <lat>51.1617</lat>
        <lon>14.5056</lon>
    </station>
    <station>
        <id>GME00125710</id>
        <name>MANDERSCHEID SONNENHOF, GM</name>
        <lat>50.1028</lat>
        <lon>6.8019</lon>
    </station>
    <station>
        <id>GME00125746</id>
        <name>KR. MARBURG BIEDENKOPF COLBE, GM</name>
        <lat>50.8503</lat>
        <lon>8.7742</lon>
    </station>
    <station>
        <id>GME00125794</id>
        <name>MARTINRODA, GM</name>
        <lat>50.7344</lat>
        <lon>10.8831</lon>
    </station>
    <station>
        <id>GME00125806</id>
        <name>HEINERSREUTH VOLLHOF, GM</name>
        <lat>49.9678</lat>
        <lon>11.5208</lon>
    </station>
    <station>
        <id>GME00125818</id>
        <name>MAUTH FINSTERAU, GM</name>
        <lat>48.9367</lat>
        <lon>13.5781</lon>
    </station>
    <station>
        <id>GME00125866</id>
        <name>MEHRINGEN, GM</name>
        <lat>51.7269</lat>
        <lon>11.5125</lon>
    </station>
    <station>
        <id>GME00125890</id>
        <name>GARSEBACH BEI MEISSEN, GM</name>
        <lat>51.1306</lat>
        <lon>13.4342</lon>
    </station>
    <station>
        <id>GME00125902</id>
        <name>MELLE, GM</name>
        <lat>52.2056</lat>
        <lon>8.3392</lon>
    </station>
    <station>
        <id>GME00125914</id>
        <name>MEMMINGEN, GM</name>
        <lat>47.9831</lat>
        <lon>10.1392</lon>
    </station>
    <station>
        <id>GME00125974</id>
        <name>BAD NEUNKIRCHEN MERGENTHEIM, GM</name>
        <lat>49.4781</lat>
        <lon>9.7631</lon>
    </station>
    <station>
        <id>GME00126010</id>
        <name>METTEN, GM</name>
        <lat>48.8556</lat>
        <lon>12.9203</lon>
    </station>
    <station>
        <id>GME00126022</id>
        <name>METZINGEN, GM</name>
        <lat>48.5383</lat>
        <lon>9.2742</lon>
    </station>
    <station>
        <id>GME00126046</id>
        <name>MICHELSTADT, GM</name>
        <lat>49.67</lat>
        <lon>9.0119</lon>
    </station>
    <station>
        <id>GME00126058</id>
        <name>MICHELSTADT VIELBRUNN, GM</name>
        <lat>49.7189</lat>
        <lon>9.1006</lon>
    </station>
    <station>
        <id>GME00126070</id>
        <name>SCHMIERITZ WELTWITZ, GM</name>
        <lat>50.7294</lat>
        <lon>11.7856</lon>
    </station>
    <station>
        <id>GME00126082</id>
        <name>MILTENBERG, GM</name>
        <lat>49.7131</lat>
        <lon>9.2267</lon>
    </station>
    <station>
        <id>GME00126118</id>
        <name>BEERFELDEN, GM</name>
        <lat>49.5628</lat>
        <lon>8.9689</lon>
    </station>
    <station>
        <id>GME00126154</id>
        <name>ROLLBACH, GM</name>
        <lat>49.7656</lat>
        <lon>9.2542</lon>
    </station>
    <station>
        <id>GME00126178</id>
        <name>MONTABAUR, GM</name>
        <lat>50.4392</lat>
        <lon>7.8064</lon>
    </station>
    <station>
        <id>GME00126226</id>
        <name>MUHLDORF, GM</name>
        <lat>48.28</lat>
        <lon>12.5039</lon>
    </station>
    <station>
        <id>GME00126250</id>
        <name>MUNCHEBERG, GM</name>
        <lat>52.5189</lat>
        <lon>14.125</lon>
    </station>
    <station>
        <id>GME00126322</id>
        <name>MUNSINGEN APFELSTETTEN, GM</name>
        <lat>48.3864</lat>
        <lon>9.4842</lon>
    </station>
    <station>
        <id>GME00126358</id>
        <name>BAD MUSKAU, GM</name>
        <lat>51.5675</lat>
        <lon>14.7006</lon>
    </station>
    <station>
        <id>GME00126370</id>
        <name>BELM, GM</name>
        <lat>52.3181</lat>
        <lon>8.1706</lon>
    </station>
    <station>
        <id>GME00126382</id>
        <name>NAGOLD, GM</name>
        <lat>48.5675</lat>
        <lon>8.7192</lon>
    </station>
    <station>
        <id>GME00126394</id>
        <name>BAD NAUHEIM, GM</name>
        <lat>50.3694</lat>
        <lon>8.7656</lon>
    </station>
    <station>
        <id>GME00126418</id>
        <name>NEUBURG DONAU FLUGPLATZ, GM</name>
        <lat>48.7092</lat>
        <lon>11.21</lon>
    </station>
    <station>
        <id>GME00126430</id>
        <name>NEUBURG KAMMEL LANGENHASLACH, GM</name>
        <lat>48.3125</lat>
        <lon>10.3781</lon>
    </station>
    <station>
        <id>GME00126478</id>
        <name>MENZ, GM</name>
        <lat>53.1031</lat>
        <lon>13.0439</lon>
    </station>
    <station>
        <id>GME00126490</id>
        <name>NEUHAUS AM RENNWEG, GM</name>
        <lat>50.5014</lat>
        <lon>11.1356</lon>
    </station>
    <station>
        <id>GME00126514</id>
        <name>NEUHAUSEN OB ECK UNTERSCHWANDO, GM</name>
        <lat>47.9531</lat>
        <lon>8.9942</lon>
    </station>
    <station>
        <id>GME00126526</id>
        <name>NEUKIRCHEN HAUPTSCHWENDA, GM</name>
        <lat>50.8933</lat>
        <lon>9.4064</lon>
    </station>
    <station>
        <id>GME00126562</id>
        <name>NEUNKIRCHEN SEELSCHEID KRAWINK, GM</name>
        <lat>50.8456</lat>
        <lon>7.3719</lon>
    </station>
    <station>
        <id>GME00126586</id>
        <name>NEUNKIRCHEN WELLESWEILER, GM</name>
        <lat>49.3444</lat>
        <lon>7.2303</lon>
    </station>
    <station>
        <id>GME00126622</id>
        <name>NEUSTADT AM KULM FILCHENDORF, GM</name>
        <lat>49.8183</lat>
        <lon>11.8653</lon>
    </station>
    <station>
        <id>GME00126670</id>
        <name>REGENSBURG BURGWEINTING, GM</name>
        <lat>48.9842</lat>
        <lon>12.1456</lon>
    </station>
    <station>
        <id>GME00126694</id>
        <name>NIDEGGEN SCHMIDT, GM</name>
        <lat>50.6756</lat>
        <lon>6.4242</lon>
    </station>
    <station>
        <id>GME00126718</id>
        <name>NIEDERSTETTEN, GM</name>
        <lat>49.3992</lat>
        <lon>9.9653</lon>
    </station>
    <station>
        <id>GME00126730</id>
        <name>NIEDERSTOTZINGEN, GM</name>
        <lat>48.5342</lat>
        <lon>10.2442</lon>
    </station>
    <station>
        <id>GME00126742</id>
        <name>NIENBURG, GM</name>
        <lat>52.6725</lat>
        <lon>9.2242</lon>
    </station>
    <station>
        <id>GME00126754</id>
        <name>REIMLINGEN, GM</name>
        <lat>48.8264</lat>
        <lon>10.5078</lon>
    </station>
    <station>
        <id>GME00126766</id>
        <name>NORVENICH FLUGPLATZ, GM</name>
        <lat>50.8289</lat>
        <lon>6.6592</lon>
    </station>
    <station>
        <id>GME00126778</id>
        <name>NORDHOLZ FLUGPLATZ, GM</name>
        <lat>53.7644</lat>
        <lon>8.6575</lon>
    </station>
    <station>
        <id>GME00126790</id>
        <name>NORDHORN, GM</name>
        <lat>52.4408</lat>
        <lon>7.1056</lon>
    </station>
    <station>
        <id>GME00126838</id>
        <name>NURNBERG NETZSTALL, GM</name>
        <lat>49.4267</lat>
        <lon>11.2553</lon>
    </station>
    <station>
        <id>GME00126874</id>
        <name>KIEFERSFELDEN GACH, GM</name>
        <lat>47.6192</lat>
        <lon>12.1681</lon>
    </station>
    <station>
        <id>GME00126886</id>
        <name>BERGEN, GM</name>
        <lat>52.8167</lat>
        <lon>9.9331</lon>
    </station>
    <station>
        <id>GME00126910</id>
        <name>OBERSCHLEISSHEIM, GM</name>
        <lat>48.2444</lat>
        <lon>11.5539</lon>
    </station>
    <station>
        <id>GME00126922</id>
        <name>OBERSULM WILLSBACH, GM</name>
        <lat>49.1289</lat>
        <lon>9.3533</lon>
    </station>
    <station>
        <id>GME00126946</id>
        <name>OBERVIECHTACH, GM</name>
        <lat>49.4531</lat>
        <lon>12.4381</lon>
    </station>
    <station>
        <id>GME00127030</id>
        <name>BAD BERGZABERN, GM</name>
        <lat>49.1081</lat>
        <lon>7.9969</lon>
    </station>
    <station>
        <id>GME00127090</id>
        <name>OSTERFELD, GM</name>
        <lat>51.0883</lat>
        <lon>11.9314</lon>
    </station>
    <station>
        <id>GME00127114</id>
        <name>OSTHEIM V.D. RHON, GM</name>
        <lat>50.455</lat>
        <lon>10.2219</lon>
    </station>
    <station>
        <id>GME00127138</id>
        <name>OY MITTELBERG PETERSTHAL, GM</name>
        <lat>47.6367</lat>
        <lon>10.3903</lon>
    </station>
    <station>
        <id>GME00127150</id>
        <name>PAPENBURG, GM</name>
        <lat>53.0656</lat>
        <lon>7.4819</lon>
    </station>
    <station>
        <id>GME00127174</id>
        <name>PARSBERG OBERPFALZ EGLWANG, GM</name>
        <lat>49.1517</lat>
        <lon>11.6908</lon>
    </station>
    <station>
        <id>GME00127186</id>
        <name>PASSAU MAIERHOF, GM</name>
        <lat>48.5817</lat>
        <lon>13.4167</lon>
    </station>
    <station>
        <id>GME00127222</id>
        <name>PELZERHAKEN, GM</name>
        <lat>54.0906</lat>
        <lon>10.8783</lon>
    </station>
    <station>
        <id>GME00127246</id>
        <name>PERL NENNIG, GM</name>
        <lat>49.5367</lat>
        <lon>6.3808</lon>
    </station>
    <station>
        <id>GME00127258</id>
        <name>BAD STUNZEL BERLEBURG, GM</name>
        <lat>50.985</lat>
        <lon>8.3689</lon>
    </station>
    <station>
        <id>GME00127306</id>
        <name>PFORZHEIM ISPRINGEN, GM</name>
        <lat>48.9328</lat>
        <lon>8.6967</lon>
    </station>
    <station>
        <id>GME00127318</id>
        <name>PFULLENDORF, GM</name>
        <lat>47.9353</lat>
        <lon>9.2878</lon>
    </station>
    <station>
        <id>GME00127342</id>
        <name>PIRMASENS, GM</name>
        <lat>49.1919</lat>
        <lon>7.5881</lon>
    </station>
    <station>
        <id>GME00127354</id>
        <name>PLAUEN, GM</name>
        <lat>50.4831</lat>
        <lon>12.1317</lon>
    </station>
    <station>
        <id>GME00127390</id>
        <name>POMMELSBRUNN MITTELBURG, GM</name>
        <lat>49.4789</lat>
        <lon>11.5367</lon>
    </station>
    <station>
        <id>GME00127438</id>
        <name>BERLIN BUCH, GM</name>
        <lat>52.6325</lat>
        <lon>13.5039</lon>
    </station>
    <station>
        <id>GME00127462</id>
        <name>PUTBUS, GM</name>
        <lat>54.3656</lat>
        <lon>13.4783</lon>
    </station>
    <station>
        <id>GME00127498</id>
        <name>QUEDLINBURG, GM</name>
        <lat>51.7967</lat>
        <lon>11.1331</lon>
    </station>
    <station>
        <id>GME00127510</id>
        <name>QUERFURT MUHLE LODERSLEBEN, GM</name>
        <lat>51.3906</lat>
        <lon>11.5428</lon>
    </station>
    <station>
        <id>GME00127534</id>
        <name>QUICKBORN, GM</name>
        <lat>53.7344</lat>
        <lon>9.8783</lon>
    </station>
    <station>
        <id>GME00127546</id>
        <name>RADOLFZELL MARKELFINGEN, GM</name>
        <lat>47.7467</lat>
        <lon>9.0017</lon>
    </station>
    <station>
        <id>GME00127558</id>
        <name>RAHDEN VARL, GM</name>
        <lat>52.4481</lat>
        <lon>8.5731</lon>
    </station>
    <station>
        <id>GME00127582</id>
        <name>RASTATT, GM</name>
        <lat>48.8478</lat>
        <lon>8.1869</lon>
    </station>
    <station>
        <id>GME00127618</id>
        <name>KR. RAVENSBURG WEINGARTEN, GM</name>
        <lat>47.8069</lat>
        <lon>9.6217</lon>
    </station>
    <station>
        <id>GME00127678</id>
        <name>MARIENBERG REITZENHAIN, GM</name>
        <lat>50.5614</lat>
        <lon>13.2239</lon>
    </station>
    <station>
        <id>GME00127726</id>
        <name>RENNINGEN IHINGER HOF, GM</name>
        <lat>48.7433</lat>
        <lon>8.925</lon>
    </station>
    <station>
        <id>GME00127750</id>
        <name>RHEINAU MEMPRECHTSHOFEN, GM</name>
        <lat>48.6708</lat>
        <lon>7.9956</lon>
    </station>
    <station>
        <id>GME00127786</id>
        <name>RHEINFELDEN, GM</name>
        <lat>47.5633</lat>
        <lon>7.7942</lon>
    </station>
    <station>
        <id>GME00127810</id>
        <name>KREIS BIBERACH ALTHEIM, GM</name>
        <lat>48.1489</lat>
        <lon>9.4606</lon>
    </station>
    <station>
        <id>GME00127822</id>
        <name>BERLIN MARZAHN, GM</name>
        <lat>52.5458</lat>
        <lon>13.5617</lon>
    </station>
    <station>
        <id>GME00127894</id>
        <name>ROSENHEIM, GM</name>
        <lat>47.8758</lat>
        <lon>12.1292</lon>
    </station>
    <station>
        <id>GME00127906</id>
        <name>ROTENBURG WUMME, GM</name>
        <lat>53.1303</lat>
        <lon>9.3406</lon>
    </station>
    <station>
        <id>GME00127930</id>
        <name>BERLIN SCHONEFELD, GM</name>
        <lat>52.3819</lat>
        <lon>13.5325</lon>
    </station>
    <station>
        <id>GME00127942</id>
        <name>ROTH, GM</name>
        <lat>49.2158</lat>
        <lon>11.1025</lon>
    </station>
    <station>
        <id>GME00127954</id>
        <name>ROTHENBURG OB DER TAUBER, GM</name>
        <lat>49.3856</lat>
        <lon>10.1742</lon>
    </station>
    <station>
        <id>GME00127966</id>
        <name>BAD ROTHENFELDE, GM</name>
        <lat>52.1053</lat>
        <lon>8.1828</lon>
    </station>
    <station>
        <id>GME00127978</id>
        <name>ROTTENBURG KIEBINGEN, GM</name>
        <lat>48.4714</lat>
        <lon>8.9694</lon>
    </station>
    <station>
        <id>GME00128002</id>
        <name>ROTTWEIL, GM</name>
        <lat>48.1819</lat>
        <lon>8.6358</lon>
    </station>
    <station>
        <id>GME00128014</id>
        <name>BAD KREUZNACH, GM</name>
        <lat>49.8517</lat>
        <lon>7.8725</lon>
    </station>
    <station>
        <id>GME00128038</id>
        <name>RUPPERTSECKEN, GM</name>
        <lat>49.6478</lat>
        <lon>7.8842</lon>
    </station>
    <station>
        <id>GME00128110</id>
        <name>SACHSENHEIM, GM</name>
        <lat>48.9578</lat>
        <lon>9.0719</lon>
    </station>
    <station>
        <id>GME00128134</id>
        <name>SALDENBURG ENTSCHENREUTH, GM</name>
        <lat>48.7842</lat>
        <lon>13.3158</lon>
    </station>
    <station>
        <id>GME00128170</id>
        <name>SALZHEMMENDORF LAUENSTEIN, GM</name>
        <lat>52.0792</lat>
        <lon>9.5531</lon>
    </station>
    <station>
        <id>GME00128182</id>
        <name>BAD SALZUFLEN, GM</name>
        <lat>52.1056</lat>
        <lon>8.7531</lon>
    </station>
    <station>
        <id>GME00128194</id>
        <name>SALZWEDEL, GM</name>
        <lat>52.8581</lat>
        <lon>11.1442</lon>
    </station>
    <station>
        <id>GME00128206</id>
        <name>SANDBERG, GM</name>
        <lat>50.3531</lat>
        <lon>10.0042</lon>
    </station>
    <station>
        <id>GME00128218</id>
        <name>SANKT PETER ORDING, GM</name>
        <lat>54.3294</lat>
        <lon>8.6028</lon>
    </station>
    <station>
        <id>GME00128266</id>
        <name>SCHAAFHEIM SCHLIERBACH, GM</name>
        <lat>49.9203</lat>
        <lon>8.9681</lon>
    </station>
    <station>
        <id>GME00128350</id>
        <name>SCHIERKE, GM</name>
        <lat>51.7667</lat>
        <lon>10.655</lon>
    </station>
    <station>
        <id>GME00128374</id>
        <name>SCHLEIZ, GM</name>
        <lat>50.5706</lat>
        <lon>11.8056</lon>
    </station>
    <station>
        <id>GME00128374</id>
        <name>SCHLEIZ, GM</name>
        <lat>50.5706</lat>
        <lon>11.8056</lon>
    </station>
    <station>
        <id>GME00128374</id>
        <name>SCHLEIZ, GM</name>
        <lat>50.5706</lat>
        <lon>11.8056</lon>
    </station>
    <station>
        <id>GME00128374</id>
        <name>SCHLEIZ, GM</name>
        <lat>50.5706</lat>
        <lon>11.8056</lon>
    </station>
    <station>
        <id>GME00128374</id>
        <name>SCHLEIZ, GM</name>
        <lat>50.5706</lat>
        <lon>11.8056</lon>
    </station>
    <station>
        <id>GME00128374</id>
        <name>SCHLEIZ, GM</name>
        <lat>50.5706</lat>
        <lon>11.8056</lon>
    </station>
    <station>
        <id>GME00128374</id>
        <name>SCHLEIZ, GM</name>
        <lat>50.5706</lat>
        <lon>11.8056</lon>
    </station>
    <station>
        <id>GME00128374</id>
        <name>SCHLEIZ, GM</name>
        <lat>50.5706</lat>
        <lon>11.8056</lon>
    </station>
    <station>
        <id>GME00128374</id>
        <name>SCHLEIZ, GM</name>
        <lat>50.5706</lat>
        <lon>11.8056</lon>
    </station>
    <station>
        <id>GME00128374</id>
        <name>SCHLEIZ, GM</name>
        <lat>50.5706</lat>
        <lon>11.8056</lon>
    </station>
    <station>
        <id>GME00128374</id>
        <name>SCHLEIZ, GM</name>
        <lat>50.5706</lat>
        <lon>11.8056</lon>
    </station>
    <station>
        <id>GME00128374</id>
        <name>SCHLEIZ, GM</name>
        <lat>50.5706</lat>
        <lon>11.8056</lon>
    </station>
    <station>
        <id>GME00128374</id>
        <name>SCHLEIZ, GM</name>
        <lat>50.5706</lat>
        <lon>11.8056</lon>
    </station>
    <station>
        <id>GME00128374</id>
        <name>SCHLEIZ, GM</name>
        <lat>50.5706</lat>
        <lon>11.8056</lon>
    </station>
    <station>
        <id>GME00128686</id>
        <name>SCHWARZBURG, GM</name>
        <lat>50.6456</lat>
        <lon>11.1944</lon>
    </station>
    <station>
        <id>GME00128734</id>
        <name>SEEHAUSEN, GM</name>
        <lat>52.8928</lat>
        <lon>11.7306</lon>
    </station>
    <station>
        <id>GME00128758</id>
        <name>SEESEN, GM</name>
        <lat>51.9056</lat>
        <lon>10.19</lon>
    </station>
    <station>
        <id>GME00128818</id>
        <name>SIGMARINGEN LAIZ, GM</name>
        <lat>48.0728</lat>
        <lon>9.1953</lon>
    </station>
    <station>
        <id>GME00128854</id>
        <name>SIMBACH INN, GM</name>
        <lat>48.2728</lat>
        <lon>13.0289</lon>
    </station>
    <station>
        <id>GME00128866</id>
        <name>SIMMERN WAHLBACH, GM</name>
        <lat>50.0017</lat>
        <lon>7.5969</lon>
    </station>
    <station>
        <id>GME00128902</id>
        <name>SOLINGEN HOHENSCHEID, GM</name>
        <lat>51.1408</lat>
        <lon>7.0942</lon>
    </station>
    <station>
        <id>GME00128914</id>
        <name>SOLTAU, GM</name>
        <lat>52.9617</lat>
        <lon>9.7967</lon>
    </station>
    <station>
        <id>GME00128962</id>
        <name>SONTRA, GM</name>
        <lat>51.0617</lat>
        <lon>9.9275</lon>
    </station>
    <station>
        <id>GME00128974</id>
        <name>BAD SOODEN ALLENDORF, GM</name>
        <lat>51.2814</lat>
        <lon>9.9858</lon>
    </station>
    <station>
        <id>GME00129010</id>
        <name>BIEDENKOPF, GM</name>
        <lat>50.9208</lat>
        <lon>8.5278</lon>
    </station>
    <station>
        <id>GME00129022</id>
        <name>STAMMBACH QUERENBACH, GM</name>
        <lat>50.1542</lat>
        <lon>11.7417</lon>
    </station>
    <station>
        <id>GME00129046</id>
        <name>KR. CUXHAVEN STEINAU, GM</name>
        <lat>53.6956</lat>
        <lon>8.875</lon>
    </station>
    <station>
        <id>GME00129070</id>
        <name>MITTELNKIRCHEN HOHENFELDE, GM</name>
        <lat>53.5528</lat>
        <lon>9.6092</lon>
    </station>
    <station>
        <id>GME00129082</id>
        <name>STIEGE, GM</name>
        <lat>51.6692</lat>
        <lon>10.8833</lon>
    </station>
    <station>
        <id>GME00129094</id>
        <name>STOCKACH, GM</name>
        <lat>47.86</lat>
        <lon>9.0164</lon>
    </station>
    <station>
        <id>GME00129166</id>
        <name>TANN RHON, GM</name>
        <lat>50.6394</lat>
        <lon>10.0231</lon>
    </station>
    <station>
        <id>GME00129190</id>
        <name>TEGKWITZ, GM</name>
        <lat>50.9789</lat>
        <lon>12.3444</lon>
    </station>
    <station>
        <id>GME00129202</id>
        <name>TETEstation, GM</name>
        <lat>53.7625</lat>
        <lon>12.5581</lon>
    </station>
    <station>
        <id>GME00129214</id>
        <name>WORPSWEDE HUTTENBUSCH, GM</name>
        <lat>53.2775</lat>
        <lon>8.9867</lon>
    </station>
    <station>
        <id>GME00129226</id>
        <name>TEUSCHNITZ, GM</name>
        <lat>50.4014</lat>
        <lon>11.3903</lon>
    </station>
    <station>
        <id>GME00129250</id>
        <name>THOLEY, GM</name>
        <lat>49.4744</lat>
        <lon>7.0392</lon>
    </station>
    <station>
        <id>GME00129274</id>
        <name>THUNGERSHEIM, GM</name>
        <lat>49.8819</lat>
        <lon>9.8464</lon>
    </station>
    <station>
        <id>GME00129298</id>
        <name>TIRSCHENREUTH LODERMUHL, GM</name>
        <lat>49.8589</lat>
        <lon>12.3556</lon>
    </station>
    <station>
        <id>GME00129346</id>
        <name>TONISVORST, GM</name>
        <lat>51.2908</lat>
        <lon>6.445</lon>
    </station>
    <station>
        <id>GME00129418</id>
        <name>TRIBSEES, GM</name>
        <lat>54.0681</lat>
        <lon>12.7689</lon>
    </station>
    <station>
        <id>GME00129430</id>
        <name>TRIER ZEWEN, GM</name>
        <lat>49.7325</lat>
        <lon>6.6131</lon>
    </station>
    <station>
        <id>GME00129478</id>
        <name>TROSTBERG, GM</name>
        <lat>48.0317</lat>
        <lon>12.5408</lon>
    </station>
    <station>
        <id>GME00129514</id>
        <name>TUTTLINGEN MOHRINGEN, GM</name>
        <lat>47.9558</lat>
        <lon>8.7575</lon>
    </station>
    <station>
        <id>GME00129526</id>
        <name>TWISTETAL MUHLHAUSEN, GM</name>
        <lat>51.3356</lat>
        <lon>8.9142</lon>
    </station>
    <station>
        <id>GME00129550</id>
        <name>UECKERMUNDE, GM</name>
        <lat>53.7458</lat>
        <lon>14.0694</lon>
    </station>
    <station>
        <id>GME00129562</id>
        <name>UELZEN, GM</name>
        <lat>52.9428</lat>
        <lon>10.53</lon>
    </station>
    <station>
        <id>GME00129574</id>
        <name>GOLLHOFEN, GM</name>
        <lat>49.5753</lat>
        <lon>10.1928</lon>
    </station>
    <station>
        <id>GME00129598</id>
        <name>UMMENDORF, GM</name>
        <lat>52.1617</lat>
        <lon>11.1767</lon>
    </station>
    <station>
        <id>GME00129634</id>
        <name>VILLINGEN SCHWENNINGEN, GM</name>
        <lat>48.0458</lat>
        <lon>8.4617</lon>
    </station>
    <station>
        <id>GME00129718</id>
        <name>WAGHAUSEL KIRRLACH, GM</name>
        <lat>49.2456</lat>
        <lon>8.5381</lon>
    </station>
    <station>
        <id>GME00129742</id>
        <name>WAHLSBURG LIPPOLDSBERG, GM</name>
        <lat>51.6194</lat>
        <lon>9.5769</lon>
    </station>
    <station>
        <id>GME00129754</id>
        <name>WITTENBORN, GM</name>
        <lat>53.9214</lat>
        <lon>10.2306</lon>
    </station>
    <station>
        <id>GME00129814</id>
        <name>WALDEMS REINBORN, GM</name>
        <lat>50.2608</lat>
        <lon>8.3608</lon>
    </station>
    <station>
        <id>GME00129862</id>
        <name>WALTERSHAUSEN, GM</name>
        <lat>50.8975</lat>
        <lon>10.5494</lon>
    </station>
    <station>
        <id>GME00129874</id>
        <name>WANGEROOGE, GM</name>
        <lat>53.7883</lat>
        <lon>7.9075</lon>
    </station>
    <station>
        <id>GME00129886</id>
        <name>WARBURG, GM</name>
        <lat>51.5053</lat>
        <lon>9.1128</lon>
    </station>
    <station>
        <id>GME00129898</id>
        <name>WAREN, GM</name>
        <lat>53.5214</lat>
        <lon>12.6692</lon>
    </station>
    <station>
        <id>GME00129910</id>
        <name>BLANKENRATH, GM</name>
        <lat>50.0367</lat>
        <lon>7.3056</lon>
    </station>
    <station>
        <id>GME00130018</id>
        <name>WEIMAR SCHONDORF, GM</name>
        <lat>51.0192</lat>
        <lon>11.3556</lon>
    </station>
    <station>
        <id>GME00130054</id>
        <name>WEISKIRCHEN SAAR, GM</name>
        <lat>49.555</lat>
        <lon>6.8125</lon>
    </station>
    <station>
        <id>GME00130078</id>
        <name>WEISSACH, GM</name>
        <lat>48.8467</lat>
        <lon>8.9089</lon>
    </station>
    <station>
        <id>GME00130102</id>
        <name>WEISSENFELS, GM</name>
        <lat>51.2178</lat>
        <lon>11.9725</lon>
    </station>
    <station>
        <id>GME00130114</id>
        <name>WEISSENSEE OTTENHAUSEN, GM</name>
        <lat>51.2131</lat>
        <lon>10.9967</lon>
    </station>
    <station>
        <id>GME00130126</id>
        <name>WEISWEIL WALDECKHOF, GM</name>
        <lat>48.1892</lat>
        <lon>7.6983</lon>
    </station>
    <station>
        <id>GME00130186</id>
        <name>WERNIGERODE, GM</name>
        <lat>51.8478</lat>
        <lon>10.7694</lon>
    </station>
    <station>
        <id>GME00130210</id>
        <name>BOBECK, GM</name>
        <lat>50.9056</lat>
        <lon>11.7992</lon>
    </station>
    <station>
        <id>GME00130234</id>
        <name>WIELENBACH DEMOLLSTR., GM</name>
        <lat>47.8833</lat>
        <lon>11.1589</lon>
    </station>
    <station>
        <id>GME00130258</id>
        <name>WIESBADEN AURINGEN, GM</name>
        <lat>50.1331</lat>
        <lon>8.3178</lon>
    </station>
    <station>
        <id>GME00130282</id>
        <name>WIESENBURG, GM</name>
        <lat>52.1219</lat>
        <lon>12.46</lon>
    </station>
    <station>
        <id>GME00130294</id>
        <name>BOCHOLT, GM</name>
        <lat>51.8308</lat>
        <lon>6.5358</lon>
    </station>
    <station>
        <id>GME00130306</id>
        <name>BAD CALMBACH WILDBAD, GM</name>
        <lat>48.7856</lat>
        <lon>8.5769</lon>
    </station>
    <station>
        <id>GME00130330</id>
        <name>NEUBULACH OBERHAUGSTETT, GM</name>
        <lat>48.6525</lat>
        <lon>8.6808</lon>
    </station>
    <station>
        <id>GME00130378</id>
        <name>REMS MURR KREIS WINTERBACH, GM</name>
        <lat>48.8042</lat>
        <lon>9.4706</lon>
    </station>
    <station>
        <id>GME00130390</id>
        <name>WISMAR, GM</name>
        <lat>53.8944</lat>
        <lon>11.4253</lon>
    </station>
    <station>
        <id>GME00130402</id>
        <name>WITTENBERG, GM</name>
        <lat>51.8903</lat>
        <lon>12.6464</lon>
    </station>
    <station>
        <id>GME00130414</id>
        <name>WITTMUNDHAFEN, GM</name>
        <lat>53.55</lat>
        <lon>7.6667</lon>
    </station>
    <station>
        <id>GME00130438</id>
        <name>WITTSTOCK ROTE MUHLE, GM</name>
        <lat>53.1875</lat>
        <lon>12.4964</lon>
    </station>
    <station>
        <id>GME00130486</id>
        <name>WOLFACH, GM</name>
        <lat>48.2958</lat>
        <lon>8.24</lon>
    </station>
    <station>
        <id>GME00130510</id>
        <name>WOLFSBURG SUDWEST, GM</name>
        <lat>52.3975</lat>
        <lon>10.6908</lon>
    </station>
    <station>
        <id>GME00130534</id>
        <name>WORMS, GM</name>
        <lat>49.6056</lat>
        <lon>8.3667</lon>
    </station>
    <station>
        <id>GME00130582</id>
        <name>WUPPERTAL BUCHENHOFEN, GM</name>
        <lat>51.2258</lat>
        <lon>7.1058</lon>
    </station>
    <station>
        <id>GME00130618</id>
        <name>WUTOSCHINGEN OFTERINGEN, GM</name>
        <lat>47.6789</lat>
        <lon>8.3806</lon>
    </station>
    <station>
        <id>GME00130642</id>
        <name>ZEHDENICK, GM</name>
        <lat>52.9681</lat>
        <lon>13.3281</lon>
    </station>
    <station>
        <id>GME00130654</id>
        <name>ZEITZ, GM</name>
        <lat>51.0539</lat>
        <lon>12.1442</lon>
    </station>
    <station>
        <id>GME00130702</id>
        <name>ZINNWALD GEORGENFELD, GM</name>
        <lat>50.7328</lat>
        <lon>13.7531</lon>
    </station>
    <station>
        <id>GME00130726</id>
        <name>LICHTENTANNE, GM</name>
        <lat>50.6892</lat>
        <lon>12.4342</lon>
    </station>
    <station>
        <id>GME00130738</id>
        <name>ZWIESEL, GM</name>
        <lat>49.0292</lat>
        <lon>13.2403</lon>
    </station>
    <station>
        <id>GME00130786</id>
        <name>BERGE, GM</name>
        <lat>52.6206</lat>
        <lon>12.7889</lon>
    </station>
    <station>
        <id>GME00130858</id>
        <name>MELSUNGEN BURSTOSS, GM</name>
        <lat>51.1331</lat>
        <lon>9.52</lon>
    </station>
    <station>
        <id>GME00130858</id>
        <name>MELSUNGEN BURSTOSS, GM</name>
        <lat>51.1331</lat>
        <lon>9.52</lon>
    </station>
    <station>
        <id>GME00130918</id>
        <name>REIT IM WINKL, GM</name>
        <lat>47.6758</lat>
        <lon>12.4708</lon>
    </station>
    <station>
        <id>GME00130990</id>
        <name>BONN ROLEBER, GM</name>
        <lat>50.7364</lat>
        <lon>7.1939</lon>
    </station>
    <station>
        <id>GME00131002</id>
        <name>BOOS, GM</name>
        <lat>48.0744</lat>
        <lon>10.2014</lon>
    </station>
    <station>
        <id>GME00131026</id>
        <name>WENDISCH EVERN, GM</name>
        <lat>53.2153</lat>
        <lon>10.4717</lon>
    </station>
    <station>
        <id>GME00131050</id>
        <name>OSTENFELD RENDSBURG, GM</name>
        <lat>54.3208</lat>
        <lon>9.8058</lon>
    </station>
    <station>
        <id>GME00131062</id>
        <name>GRAMBOW SCHWENNENZ, GM</name>
        <lat>53.3856</lat>
        <lon>14.3742</lon>
    </station>
    <station>
        <id>GME00131098</id>
        <name>SOHLAND SPREE, GM</name>
        <lat>51.0606</lat>
        <lon>14.4281</lon>
    </station>
    <station>
        <id>GME00131122</id>
        <name>WANGERLAND HOOKSIEL, GM</name>
        <lat>53.6417</lat>
        <lon>8.0828</lon>
    </station>
    <station>
        <id>GME00131134</id>
        <name>WEIDENBACH WEIHERSCHNEIDBACH, GM</name>
        <lat>49.2256</lat>
        <lon>10.6094</lon>
    </station>
    <station>
        <id>GME00131146</id>
        <name>DORPEN, GM</name>
        <lat>52.9553</lat>
        <lon>7.3192</lon>
    </station>
    <station>
        <id>GME00131158</id>
        <name>DORNICK, GM</name>
        <lat>54.1667</lat>
        <lon>10.3539</lon>
    </station>
    <station>
        <id>GME00131170</id>
        <name>COSCHEN, GM</name>
        <lat>52.0206</lat>
        <lon>14.7269</lon>
    </station>
    <station>
        <id>GME00131182</id>
        <name>BORKEN IN WESTFALEN, GM</name>
        <lat>51.8742</lat>
        <lon>6.8867</lon>
    </station>
    <station>
        <id>GME00131242</id>
        <name>LUGDE PAENBRUCH, GM</name>
        <lat>51.8678</lat>
        <lon>9.2719</lon>
    </station>
    <station>
        <id>GME00131254</id>
        <name>STEINHAGEN NEGAST, GM</name>
        <lat>54.2503</lat>
        <lon>13.0431</lon>
    </station>
    <station>
        <id>GME00131290</id>
        <name>SAARBRUCKEN BURBACH, GM</name>
        <lat>49.2417</lat>
        <lon>6.935</lon>
    </station>
    <station>
        <id>GME00131314</id>
        <name>FRIEDRICHSHAFEN UNTERRADERACH, GM</name>
        <lat>47.6853</lat>
        <lon>9.4417</lon>
    </station>
    <station>
        <id>GME00131326</id>
        <name>GROSSERLACH MANNENWEILER, GM</name>
        <lat>49.0217</lat>
        <lon>9.6042</lon>
    </station>
    <station>
        <id>GME00131338</id>
        <name>INGELFINGEN STACHENHAUSEN, GM</name>
        <lat>49.3333</lat>
        <lon>9.705</lon>
    </station>
    <station>
        <id>GME00131350</id>
        <name>SCHWABISCH GMUND WEILER, GM</name>
        <lat>48.7706</lat>
        <lon>9.875</lon>
    </station>
    <station>
        <id>GME00131362</id>
        <name>SINGEN, GM</name>
        <lat>47.7744</lat>
        <lon>8.8228</lon>
    </station>
    <station>
        <id>GME00131374</id>
        <name>BRILON THULEN, GM</name>
        <lat>51.4156</lat>
        <lon>8.6506</lon>
    </station>
    <station>
        <id>GME00131386</id>
        <name>WUSTERWITZ, GM</name>
        <lat>52.3625</lat>
        <lon>12.3883</lon>
    </station>
    <station>
        <id>GME00131398</id>
        <name>PABSTORF, GM</name>
        <lat>52.0317</lat>
        <lon>10.9639</lon>
    </station>
    <station>
        <id>GME00131410</id>
        <name>MOORGRUND GRAFEN NITZENDORF, GM</name>
        <lat>50.8433</lat>
        <lon>10.2528</lon>
    </station>
    <station>
        <id>GME00131422</id>
        <name>DEMKER, GM</name>
        <lat>52.5083</lat>
        <lon>11.8564</lon>
    </station>
    <station>
        <id>GME00131434</id>
        <name>NOTZINGEN, GM</name>
        <lat>48.6717</lat>
        <lon>9.4633</lon>
    </station>
    <station>
        <id>GME00131458</id>
        <name>MUHLHAUSEN GORMAR, GM</name>
        <lat>51.2078</lat>
        <lon>10.4958</lon>
    </station>
    <station>
        <id>GME00131470</id>
        <name>KARLSHAGEN, GM</name>
        <lat>54.1064</lat>
        <lon>13.8258</lon>
    </station>
    <station>
        <id>GME00131482</id>
        <name>MARKT ERLBACH MOSBACH, GM</name>
        <lat>49.5325</lat>
        <lon>10.6431</lon>
    </station>
    <station>
        <id>GME00131494</id>
        <name>NOSSEN, GM</name>
        <lat>51.0517</lat>
        <lon>13.3025</lon>
    </station>
    <station>
        <id>GME00131506</id>
        <name>LOHR MAIN HALSBACH, GM</name>
        <lat>50.0142</lat>
        <lon>9.655</lon>
    </station>
    <station>
        <id>GME00131518</id>
        <name>LUDINGHAUSEN BROCHTRUP, GM</name>
        <lat>51.7681</lat>
        <lon>7.5203</lon>
    </station>
    <station>
        <id>GME00131530</id>
        <name>RUNKEL ENNERICH, GM</name>
        <lat>50.3956</lat>
        <lon>8.1442</lon>
    </station>
    <station>
        <id>GME00131546</id>
        <name>MAISACH GALGEN, GM</name>
        <lat>48.2081</lat>
        <lon>11.2044</lon>
    </station>
    <station>
        <id>GME00131554</id>
        <name>SCHONUNGEN MAINBERG, GM</name>
        <lat>50.0589</lat>
        <lon>10.2983</lon>
    </station>
    <station>
        <id>GME00131590</id>
        <name>BRAMSCHE, GM</name>
        <lat>52.405</lat>
        <lon>7.9731</lon>
    </station>
    <station>
        <id>GME00131674</id>
        <name>BRAUNSCHWEIG, GM</name>
        <lat>52.2903</lat>
        <lon>10.4483</lon>
    </station>
    <station>
        <id>GME00131746</id>
        <name>BREMERVORDE, GM</name>
        <lat>53.4989</lat>
        <lon>9.1731</lon>
    </station>
    <station>
        <id>GME00131782</id>
        <name>ELSENDORF HORNECK, GM</name>
        <lat>48.7031</lat>
        <lon>11.8506</lon>
    </station>
    <station>
        <id>GME00131794</id>
        <name>LIEBENBURG OTHFRESEN, GM</name>
        <lat>52.0106</lat>
        <lon>10.3956</lon>
    </station>
    <station>
        <id>GME00131818</id>
        <name>SIEGSDORF HOLL, GM</name>
        <lat>47.8356</lat>
        <lon>12.6564</lon>
    </station>
    <station>
        <id>GME00131830</id>
        <name>BIELEFELD DEPPENDORF, GM</name>
        <lat>52.0728</lat>
        <lon>8.4578</lon>
    </station>
    <station>
        <id>GME00131842</id>
        <name>BRETTEN, GM</name>
        <lat>49.0264</lat>
        <lon>8.7164</lon>
    </station>
    <station>
        <id>GME00131866</id>
        <name>FREUDENBERG MAIN BOXTAL, GM</name>
        <lat>49.7644</lat>
        <lon>9.4064</lon>
    </station>
    <station>
        <id>GME00131938</id>
        <name>DONAUWORTH OSTERWEILER, GM</name>
        <lat>48.7358</lat>
        <lon>10.7428</lon>
    </station>
    <station>
        <id>GME00131950</id>
        <name>OLBERSLEBEN, GM</name>
        <lat>51.1519</lat>
        <lon>11.3331</lon>
    </station>
    <station>
        <id>GME00131962</id>
        <name>TREUEN, GM</name>
        <lat>50.5467</lat>
        <lon>12.2867</lon>
    </station>
    <station>
        <id>GME00131974</id>
        <name>ARNSBERG NEHEIM, GM</name>
        <lat>51.4644</lat>
        <lon>7.9789</lon>
    </station>
    <station>
        <id>GME00131986</id>
        <name>HERMARINGEN ALLEWIND, GM</name>
        <lat>48.6106</lat>
        <lon>10.2692</lon>
    </station>
    <station>
        <id>GME00131998</id>
        <name>DEUTSCHNEUDORF BRUDERWIESE, GM</name>
        <lat>50.6208</lat>
        <lon>13.4831</lon>
    </station>
    <station>
        <id>GME00132022</id>
        <name>FELDBERG MECKLENBURG, GM</name>
        <lat>53.3175</lat>
        <lon>13.4175</lon>
    </station>
    <station>
        <id>GME00132034</id>
        <name>JESSNITZ, GM</name>
        <lat>51.6831</lat>
        <lon>12.3056</lon>
    </station>
    <station>
        <id>GME00132046</id>
        <name>ALFELD, GM</name>
        <lat>51.9669</lat>
        <lon>9.8042</lon>
    </station>
    <station>
        <id>GME00132058</id>
        <name>EISENACH, GM</name>
        <lat>51.0025</lat>
        <lon>10.3633</lon>
    </station>
    <station>
        <id>GME00132070</id>
        <name>FEUCHTWANGEN HEILBRONN, GM</name>
        <lat>49.1631</lat>
        <lon>10.3669</lon>
    </station>
    <station>
        <id>GME00132094</id>
        <name>WALDMUNCHEN, GM</name>
        <lat>49.3919</lat>
        <lon>12.6853</lon>
    </station>
    <station>
        <id>GME00132106</id>
        <name>BORKUM FLUGPLATZ, GM</name>
        <lat>53.6</lat>
        <lon>6.7031</lon>
    </station>
    <station>
        <id>GME00132130</id>
        <name>HECKELBERG, GM</name>
        <lat>52.7458</lat>
        <lon>13.8419</lon>
    </station>
    <station>
        <id>GME00132154</id>
        <name>HOYERSWERDA, GM</name>
        <lat>51.4506</lat>
        <lon>14.2542</lon>
    </station>
    <station>
        <id>GME00132166</id>
        <name>WUNSIEDEL SCHONBRUNN, GM</name>
        <lat>50.0317</lat>
        <lon>11.9742</lon>
    </station>
    <station>
        <id>GME00132178</id>
        <name>GOTTFRIEDING, GM</name>
        <lat>48.6606</lat>
        <lon>12.5403</lon>
    </station>
    <station>
        <id>GME00132190</id>
        <name>HOHERODSKOPF VOGELSBERG, GM</name>
        <lat>50.5083</lat>
        <lon>9.2244</lon>
    </station>
    <station>
        <id>GME00132202</id>
        <name>ALDERSBACH KRIESTORF, GM</name>
        <lat>48.6167</lat>
        <lon>13.0519</lon>
    </station>
    <station>
        <id>GME00132214</id>
        <name>LEUTKIRCH HERLAZHOFEN, GM</name>
        <lat>47.7964</lat>
        <lon>10.0333</lon>
    </station>
    <station>
        <id>GME00132226</id>
        <name>NEU ULRICHSTEIN, GM</name>
        <lat>50.7531</lat>
        <lon>9.0233</lon>
    </station>
    <station>
        <id>GME00132238</id>
        <name>NEUHUTTEN SPESSART, GM</name>
        <lat>50.0092</lat>
        <lon>9.425</lon>
    </station>
    <station>
        <id>GME00132250</id>
        <name>LANGENWETZENDORF GOTTENDORF, GM</name>
        <lat>50.6619</lat>
        <lon>12.0769</lon>
    </station>
    <station>
        <id>GME00132262</id>
        <name>KREIPITZSCH BEI BAD KOSEN, GM</name>
        <lat>51.1056</lat>
        <lon>11.7125</lon>
    </station>
    <station>
        <id>GME00132274</id>
        <name>PIDING, GM</name>
        <lat>47.7731</lat>
        <lon>12.9089</lon>
    </station>
    <station>
        <id>GME00132286</id>
        <name>PADENSTEDT PONY PARK, GM</name>
        <lat>54.0206</lat>
        <lon>9.9267</lon>
    </station>
    <station>
        <id>GME00132298</id>
        <name>VEILSDORF, GM</name>
        <lat>50.4178</lat>
        <lon>10.8167</lon>
    </station>
    <station>
        <id>GME00132310</id>
        <name>OBERHACHING LAUFZORN, GM</name>
        <lat>48.0139</lat>
        <lon>11.5539</lon>
    </station>
    <station>
        <id>GME00132322</id>
        <name>WITTINGEN VORHOP, GM</name>
        <lat>52.6439</lat>
        <lon>10.6642</lon>
    </station>
    <station>
        <id>GME00132334</id>
        <name>KR. NECKAR ODENWALD BUCHEN, GM</name>
        <lat>49.5192</lat>
        <lon>9.3225</lon>
    </station>
    <station>
        <id>GME00132346</id>
        <name>BUCHENBACH, GM</name>
        <lat>47.9631</lat>
        <lon>7.9989</lon>
    </station>
    <station>
        <id>GME00132358</id>
        <name>BUCHHOLZ IN DER NORDHEIDE, GM</name>
        <lat>53.3567</lat>
        <lon>9.9367</lon>
    </station>
    <station>
        <id>GME00132370</id>
        <name>BUCHEL FLUGPLATZ, GM</name>
        <lat>50.1739</lat>
        <lon>7.0631</lon>
    </station>
    <station>
        <id>GME00132382</id>
        <name>BUCKEBURG, GM</name>
        <lat>52.2817</lat>
        <lon>9.0878</lon>
    </station>
    <station>
        <id>GME00132430</id>
        <name>ALFHAUSEN, GM</name>
        <lat>52.4864</lat>
        <lon>7.9128</lon>
    </station>
    <station>
        <id>GME00132466</id>
        <name>BURGWALD BOTTENDORF, GM</name>
        <lat>51.0317</lat>
        <lon>8.8156</lon>
    </station>
    <station>
        <id>GME00132490</id>
        <name>CARLSFELD, GM</name>
        <lat>50.4319</lat>
        <lon>12.6128</lon>
    </station>
    <station>
        <id>GME00132502</id>
        <name>CELLE STADT, GM</name>
        <lat>52.6164</lat>
        <lon>10.0739</lon>
    </station>
    <station>
        <id>GME00132514</id>
        <name>CELLE, GM</name>
        <lat>52.5953</lat>
        <lon>10.0281</lon>
    </station>
    <station>
        <id>GME00132526</id>
        <name>PEMFLING PITZLING, GM</name>
        <lat>49.2514</lat>
        <lon>12.6056</lon>
    </station>
    <station>
        <id>GME00132538</id>
        <name>CHEMNITZ, GM</name>
        <lat>50.7925</lat>
        <lon>12.8733</lon>
    </station>
    <station>
        <id>GME00132550</id>
        <name>CHIEMING, GM</name>
        <lat>47.8853</lat>
        <lon>12.5417</lon>
    </station>
    <station>
        <id>GME00132586</id>
        <name>LAUTERTAL OBERLAUTER, GM</name>
        <lat>50.3081</lat>
        <lon>10.9692</lon>
    </station>
    <station>
        <id>GME00132634</id>
        <name>DACHWIG, GM</name>
        <lat>51.0783</lat>
        <lon>10.8639</lon>
    </station>
    <station>
        <id>GME00132646</id>
        <name>DARMSTADT, GM</name>
        <lat>49.8817</lat>
        <lon>8.6775</lon>
    </station>
    <station>
        <id>GME00132682</id>
        <name>ALSFELD EIFA, GM</name>
        <lat>50.7456</lat>
        <lon>9.3467</lon>
    </station>
    <station>
        <id>GME00132694</id>
        <name>DEGGENHAUSERTAL AZENWEILER, GM</name>
        <lat>47.8017</lat>
        <lon>9.4117</lon>
    </station>
    <station>
        <id>GME00132730</id>
        <name>DEUSELBACH, GM</name>
        <lat>49.7631</lat>
        <lon>7.0556</lon>
    </station>
    <station>
        <id>GME00132778</id>
        <name>DIETENHOFEN, GM</name>
        <lat>49.4169</lat>
        <lon>10.6742</lon>
    </station>
    <station>
        <id>GME00132790</id>
        <name>DILLENBURG, GM</name>
        <lat>50.7325</lat>
        <lon>8.2631</lon>
    </station>
    <station>
        <id>GME00132814</id>
        <name>DILLINGEN DONAU FRISTINGEN, GM</name>
        <lat>48.5569</lat>
        <lon>10.5608</lon>
    </station>
    <station>
        <id>GME00132838</id>
        <name>DIPPOLDISWALDE REINBERG, GM</name>
        <lat>50.9181</lat>
        <lon>13.7144</lon>
    </station>
    <station>
        <id>GMM00010097</id>
        <name>GREIFSWALDER OIE, GM</name>
        <lat>54.2456</lat>
        <lon>13.9125</lon>
    </station>
    <station>
        <id>GMM00010129</id>
        <name>BREMERHAVEN, GM</name>
        <lat>53.5344</lat>
        <lon>8.5769</lon>
    </station>
    <station>
        <id>GMM00010161</id>
        <name>BOLTENHAGEN, GM</name>
        <lat>54.0042</lat>
        <lon>11.1919</lon>
    </station>
    <station>
        <id>GMM00010168</id>
        <name>GOLDBERG, GM</name>
        <lat>53.6069</lat>
        <lon>12.1042</lon>
    </station>
    <station>
        <id>GMM00010267</id>
        <name>KYRITZ, GM</name>
        <lat>52.9381</lat>
        <lon>12.4106</lon>
    </station>
    <station>
        <id>GMM00010281</id>
        <name>TROLLENHAGEN, GM</name>
        <lat>53.6019</lat>
        <lon>13.3058</lon>
    </station>
    <station>
        <id>GMM00010309</id>
        <name>AHAUS, GM</name>
        <lat>52.0828</lat>
        <lon>6.9417</lon>
    </station>
    <station>
        <id>GMM00010321</id>
        <name>DIEPHOLZ, GM</name>
        <lat>52.5903</lat>
        <lon>8.3464</lon>
    </station>
    <station>
        <id>GMM00010396</id>
        <name>MANSCHNOW, GM</name>
        <lat>52.5481</lat>
        <lon>14.5475</lon>
    </station>
    <station>
        <id>GMM00010424</id>
        <name>WERL, GM</name>
        <lat>51.5778</lat>
        <lon>7.8889</lon>
    </station>
    <station>
        <id>GMM00010449</id>
        <name>LEINEFELDE, GM</name>
        <lat>51.3853</lat>
        <lon>10.3017</lon>
    </station>
    <station>
        <id>GMM00010452</id>
        <name>BRAUNLAGE, GM</name>
        <lat>51.725</lat>
        <lon>10.6039</lon>
    </station>
    <station>
        <id>GMM00010480</id>
        <name>OSCHATZ, GM</name>
        <lat>51.2969</lat>
        <lon>13.0944</lon>
    </station>
    <station>
        <id>GMM00010526</id>
        <name>BAD MARIENBERG, GM</name>
        <lat>50.6631</lat>
        <lon>7.9594</lon>
    </station>
    <station>
        <id>GMM00010579</id>
        <name>MARIENBERG, GM</name>
        <lat>50.6519</lat>
        <lon>13.1483</lon>
    </station>
    <station>
        <id>GMM00010704</id>
        <name>BERUS, GM</name>
        <lat>49.2653</lat>
        <lon>6.6878</lon>
    </station>
    <station>
        <id>GMM00010724</id>
        <name>WEINBIET, GM</name>
        <lat>49.3767</lat>
        <lon>8.1225</lon>
    </station>
    <station>
        <id>GMM00010733</id>
        <name>WAIBSTADT, GM</name>
        <lat>49.2953</lat>
        <lon>8.9064</lon>
    </station>
    <station>
        <id>GMM00010736</id>
        <name>MUHLACKER, GM</name>
        <lat>48.9731</lat>
        <lon>8.8742</lon>
    </station>
    <station>
        <id>GMM00010761</id>
        <name>WEISSENBURG, GM</name>
        <lat>49.0203</lat>
        <lon>10.9617</lon>
    </station>
    <station>
        <id>GMM00010818</id>
        <name>KLIPPENECK, GM</name>
        <lat>48.1064</lat>
        <lon>8.7556</lon>
    </station>
    <station>
        <id>GMM00010827</id>
        <name>MESSSTETTEN, GM</name>
        <lat>48.1844</lat>
        <lon>8.9925</lon>
    </station>
    <station>
        <id>GMM00010863</id>
        <name>WEIHENSTEPHAN DURNAST, GM</name>
        <lat>48.4031</lat>
        <lon>11.6956</lon>
    </station>
    <station>
        <id>GMM00010870</id>
        <name>SCHWAIGERMOOS, GM</name>
        <lat>48.3667</lat>
        <lon>11.8</lon>
    </station>
    <station>
        <id>GMW00034068</id>
        <name>COLEMAN, GM</name>
        <lat>49.56667</lat>
        <lon>8.46667</lon>
    </station>
    <station>
        <id>GMW00034178</id>
        <name>FURSTENFELDBRUCK, GM</name>
        <lat>48.2</lat>
        <lon>11.26667</lon>
    </station>
    <station>
        <id>GMW00035032</id>
        <name>RHEIN MAIN, GM</name>
        <lat>50.03333</lat>
        <lon>8.58333</lon>
    </station>
</root>